{
    "type": "FeatureCollection",
    "features": [
        {
            "type": "Feature",
            "geometry": {
                "type": "Point",
                "coordinates": [
                    -21.272072544579203,
                    14.886681291005388
                ]
            },
            "properties": {
                "name": "Valley of Thenn",
                "type": "region_3",
                "ruin": false
            }
        },
        {
            "type": "Feature",
            "geometry": {
                "type": "Point",
                "coordinates": [
                    -20.955096892727084,
                    14.104431318257213
                ]
            },
            "properties": {
                "name": "Cave Dwellers",
                "type": "region_3",
                "ruin": false
            }
        },
        {
            "type": "Feature",
            "geometry": {
                "type": "Point",
                "coordinates": [
                    -21.2907181711403,
                    13.325536606375394
                ]
            },
            "properties": {
                "name": "The Frostfangs",
                "type": "region_3",
                "ruin": false
            }
        },
        {
            "type": "Feature",
            "geometry": {
                "type": "Point",
                "coordinates": [
                    -20.656766867522606,
                    13.14403268610451
                ]
            },
            "properties": {
                "name": "Giant's Stair",
                "type": "region_3",
                "ruin": false
            }
        },
        {
            "type": "Feature",
            "geometry": {
                "type": "Point",
                "coordinates": [
                    -21.000132120958256,
                    12.456128398417803
                ]
            },
            "properties": {
                "name": "Skirling Pass",
                "type": "region_3",
                "ruin": false
            }
        },
        {
            "type": "Feature",
            "geometry": {
                "type": "Point",
                "coordinates": [
                    -20.995936915049327,
                    12.640403148428547
                ]
            },
            "properties": {
                "name": "Forktop",
                "type": "region_3",
                "ruin": false
            }
        },
        {
            "type": "Feature",
            "geometry": {
                "type": "Point",
                "coordinates": [
                    -22.476844587745546,
                    12.759087723073279
                ]
            },
            "properties": {
                "name": "Ice River Clans",
                "type": "region_3",
                "ruin": false
            }
        },
        {
            "type": "Feature",
            "geometry": {
                "type": "Point",
                "coordinates": [
                    -22.53557746997788,
                    11.19144867233824
                ]
            },
            "properties": {
                "name": "Frozen Shore",
                "type": "region_2",
                "ruin": false
            }
        },
        {
            "type": "Feature",
            "geometry": {
                "type": "Point",
                "coordinates": [
                    -22.694995294834285,
                    10.482746891396985
                ]
            },
            "properties": {
                "name": "Lorn Point",
                "type": "region_3",
                "ruin": false
            }
        },
        {
            "type": "Feature",
            "geometry": {
                "type": "Point",
                "coordinates": [
                    -21.579070533027277,
                    10.416736882762066
                ]
            },
            "properties": {
                "name": "Bay of Ice",
                "type": "sea_2",
                "ruin": false
            }
        },
        {
            "type": "Feature",
            "geometry": {
                "type": "Point",
                "coordinates": [
                    -22.26288909008369,
                    9.776553752680101
                ]
            },
            "properties": {
                "name": "Bear Island",
                "type": "region_2",
                "ruin": false
            }
        },
        {
            "type": "Feature",
            "geometry": {
                "type": "Point",
                "coordinates": [
                    -22.30997861567792,
                    9.875761641417412
                ]
            },
            "properties": {
                "name": "Mormont Keep",
                "type": "fort_2",
                "ruin": false
            }
        },
        {
            "type": "Feature",
            "geometry": {
                "type": "Point",
                "coordinates": [
                    -18.823711661107524,
                    14.353240858478983
                ]
            },
            "properties": {
                "name": "Nightrunners",
                "type": "region_3",
                "ruin": false
            }
        },
        {
            "type": "Feature",
            "geometry": {
                "type": "Point",
                "coordinates": [
                    -19.161004775560286,
                    13.807978271055475
                ]
            },
            "properties": {
                "name": "The Haunted Forest",
                "type": "region_2",
                "ruin": false
            }
        },
        {
            "type": "Feature",
            "geometry": {
                "type": "Point",
                "coordinates": [
                    -19.37564584842363,
                    13.281333456965555
                ]
            },
            "properties": {
                "name": "Hornfoot",
                "type": "region_3",
                "ruin": false
            }
        },
        {
            "type": "Feature",
            "geometry": {
                "type": "Point",
                "coordinates": [
                    -19.804992622938045,
                    12.304426408599682
                ]
            },
            "properties": {
                "name": "Fist of the First Men",
                "type": "region_3",
                "ruin": true
            }
        },
        {
            "type": "Feature",
            "geometry": {
                "type": "Point",
                "coordinates": [
                    -18.869770805837874,
                    11.787308737588432
                ]
            },
            "properties": {
                "name": "Craster's Keep",
                "type": "fort_3",
                "ruin": false
            }
        },
        {
            "type": "Feature",
            "geometry": {
                "type": "Point",
                "coordinates": [
                    -18.56313248793515,
                    11.450449468244244
                ]
            },
            "properties": {
                "name": "Whitetree",
                "type": "town",
                "ruin": false
            }
        },
        {
            "type": "Feature",
            "geometry": {
                "type": "Point",
                "coordinates": [
                    -17.027807543515195,
                    12.287675775086342
                ]
            },
            "properties": {
                "name": "Storrold's Point",
                "type": "region_3",
                "ruin": false
            }
        },
        {
            "type": "Feature",
            "geometry": {
                "type": "Point",
                "coordinates": [
                    -17.093861048828813,
                    12.513420933337258
                ]
            },
            "properties": {
                "name": "Hardhome",
                "type": "town",
                "ruin": true
            }
        },
        {
            "type": "Feature",
            "geometry": {
                "type": "Point",
                "coordinates": [
                    -16.281536338346484,
                    11.720182400434766
                ]
            },
            "properties": {
                "name": "Skane",
                "type": "region_3",
                "ruin": false
            }
        },
        {
            "type": "Feature",
            "geometry": {
                "type": "Point",
                "coordinates": [
                    -16.120023242734874,
                    11.073223235549946
                ]
            },
            "properties": {
                "name": "Driftwood Hall",
                "type": "fort_2",
                "ruin": false
            }
        },
        {
            "type": "Feature",
            "geometry": {
                "type": "Point",
                "coordinates": [
                    -15.561368746284757,
                    11.019290175412792
                ]
            },
            "properties": {
                "name": "Kingshouse",
                "type": "fort_2",
                "ruin": false
            }
        },
        {
            "type": "Feature",
            "geometry": {
                "type": "Point",
                "coordinates": [
                    -15.745994505323324,
                    10.84356380931996
                ]
            },
            "properties": {
                "name": "Skagos",
                "type": "region_1",
                "ruin": false
            }
        },
        {
            "type": "Feature",
            "geometry": {
                "type": "Point",
                "coordinates": [
                    -15.670896238927355,
                    10.602255591471263
                ]
            },
            "properties": {
                "name": "Deepdown",
                "type": "fort_2",
                "ruin": false
            }
        },
        {
            "type": "Feature",
            "geometry": {
                "type": "Point",
                "coordinates": [
                    -16.42472291765648,
                    10.229279577067217
                ]
            },
            "properties": {
                "name": "Bay of Seals",
                "type": "sea_2",
                "ruin": false
            }
        },
        {
            "type": "Feature",
            "geometry": {
                "type": "Point",
                "coordinates": [
                    -17.809801467511363,
                    10.825150538232691
                ]
            },
            "properties": {
                "name": "Brandon's Gift",
                "type": "region_3",
                "ruin": false
            }
        },
        {
            "type": "Feature",
            "geometry": {
                "type": "Point",
                "coordinates": [
                    -17.69430097481893,
                    10.395969468269598
                ]
            },
            "properties": {
                "name": "The New Gift",
                "type": "region_3",
                "ruin": false
            }
        },
        {
            "type": "Feature",
            "geometry": {
                "type": "Point",
                "coordinates": [
                    -19.698186656214034,
                    10.24307533585251
                ]
            },
            "properties": {
                "name": "Northern Mountains",
                "type": "region_2",
                "ruin": false
            }
        },
        {
            "type": "Feature",
            "geometry": {
                "type": "Point",
                "coordinates": [
                    -18.595492827788235,
                    10.620241658182351
                ]
            },
            "properties": {
                "name": "Queenscrown",
                "type": "fort_2",
                "ruin": false
            }
        },
        {
            "type": "Feature",
            "geometry": {
                "type": "Point",
                "coordinates": [
                    -17.417839514496848,
                    11.136052714728436
                ]
            },
            "properties": {
                "name": "Eastwatch-by-the-Sea",
                "type": "fort_2",
                "ruin": false
            }
        },
        {
            "type": "Feature",
            "geometry": {
                "type": "Point",
                "coordinates": [
                    -17.54487366078709,
                    11.137199638490799
                ]
            },
            "properties": {
                "name": "Greenguard",
                "type": "fort_2",
                "ruin": true
            }
        },
        {
            "type": "Feature",
            "geometry": {
                "type": "Point",
                "coordinates": [
                    -17.660816652499932,
                    11.13923105091493
                ]
            },
            "properties": {
                "name": "The Torches",
                "type": "fort_2",
                "ruin": true
            }
        },
        {
            "type": "Feature",
            "geometry": {
                "type": "Point",
                "coordinates": [
                    -17.762331354895707,
                    11.139917731766147
                ]
            },
            "properties": {
                "name": "Long Barrow",
                "type": "fort_2",
                "ruin": true
            }
        },
        {
            "type": "Feature",
            "geometry": {
                "type": "Point",
                "coordinates": [
                    -17.874133525438054,
                    11.13687556127448
                ]
            },
            "properties": {
                "name": "Rimegate",
                "type": "fort_2",
                "ruin": true
            }
        },
        {
            "type": "Feature",
            "geometry": {
                "type": "Point",
                "coordinates": [
                    -17.998358159393916,
                    11.143985450499514
                ]
            },
            "properties": {
                "name": "Sable Hall",
                "type": "fort_2",
                "ruin": true
            }
        },
        {
            "type": "Feature",
            "geometry": {
                "type": "Point",
                "coordinates": [
                    -18.131593436325062,
                    11.141958886842147
                ]
            },
            "properties": {
                "name": "Woodswatch-by-the-Pool",
                "type": "fort_2",
                "ruin": true
            }
        },
        {
            "type": "Feature",
            "geometry": {
                "type": "Point",
                "coordinates": [
                    -18.276522175931376,
                    11.138911791496326
                ]
            },
            "properties": {
                "name": "Oakenshield",
                "type": "fort_2",
                "ruin": true
            }
        },
        {
            "type": "Feature",
            "geometry": {
                "type": "Point",
                "coordinates": [
                    -18.386253935911384,
                    11.14195888684226
                ]
            },
            "properties": {
                "name": "Castle Black",
                "type": "fort_2",
                "ruin": false
            }
        },
        {
            "type": "Feature",
            "geometry": {
                "type": "Point",
                "coordinates": [
                    -18.30757833441774,
                    11.061708089112685
                ]
            },
            "properties": {
                "name": "Mole's Town",
                "type": "town",
                "ruin": false
            }
        },
        {
            "type": "Feature",
            "geometry": {
                "type": "Point",
                "coordinates": [
                    -18.573520458519738,
                    11.138911791622036
                ]
            },
            "properties": {
                "name": "Queensgate",
                "type": "fort_2",
                "ruin": true
            }
        },
        {
            "type": "Feature",
            "geometry": {
                "type": "Point",
                "coordinates": [
                    -18.72259841724943,
                    11.137896086086116
                ]
            },
            "properties": {
                "name": "Deep Lake",
                "type": "fort_2",
                "ruin": true
            }
        },
        {
            "type": "Feature",
            "geometry": {
                "type": "Point",
                "coordinates": [
                    -18.872703183277594,
                    11.137896086099389
                ]
            },
            "properties": {
                "name": "The Nightfort",
                "type": "fort_2",
                "ruin": true
            }
        },
        {
            "type": "Feature",
            "geometry": {
                "type": "Point",
                "coordinates": [
                    -18.99692781685596,
                    11.138911792139183
                ]
            },
            "properties": {
                "name": "Icemark",
                "type": "fort_2",
                "ruin": true
            }
        },
        {
            "type": "Feature",
            "geometry": {
                "type": "Point",
                "coordinates": [
                    -19.155314225148572,
                    11.137896086646137
                ]
            },
            "properties": {
                "name": "Hoarfrost Hill",
                "type": "fort_2",
                "ruin": true
            }
        },
        {
            "type": "Feature",
            "geometry": {
                "type": "Point",
                "coordinates": [
                    -19.306454196456713,
                    11.139927494173605
                ]
            },
            "properties": {
                "name": "Stonedoor",
                "type": "fort_2",
                "ruin": true
            }
        },
        {
            "type": "Feature",
            "geometry": {
                "type": "Point",
                "coordinates": [
                    -19.445171704351793,
                    11.136880377581562
                ]
            },
            "properties": {
                "name": "Greyguard",
                "type": "fort_2",
                "ruin": true
            }
        },
        {
            "type": "Feature",
            "geometry": {
                "type": "Point",
                "coordinates": [
                    -19.540410590482963,
                    11.10640745853857
                ]
            },
            "properties": {
                "name": "Sentinel Stand",
                "type": "fort_2",
                "ruin": true
            }
        },
        {
            "type": "Feature",
            "geometry": {
                "type": "Point",
                "coordinates": [
                    -19.627367834125636,
                    11.063740028425343
                ]
            },
            "properties": {
                "name": "Shadow Tower",
                "type": "fort_2",
                "ruin": false
            }
        },
        {
            "type": "Feature",
            "geometry": {
                "type": "Point",
                "coordinates": [
                    -19.697761793398428,
                    11.025130807545253
                ]
            },
            "properties": {
                "name": "Westwatch-by-the-Bridge",
                "type": "fort_2",
                "ruin": true
            }
        },
        {
            "type": "Feature",
            "geometry": {
                "type": "Point",
                "coordinates": [
                    -18.120369117897354,
                    9.685424144489502
                ]
            },
            "properties": {
                "name": "Last Hearth",
                "type": "fort_2",
                "ruin": false
            }
        },
        {
            "type": "Feature",
            "geometry": {
                "type": "Point",
                "coordinates": [
                    -19.91575105171131,
                    9.502955184846655
                ]
            },
            "properties": {
                "name": "Breakstone Hill",
                "type": "fort_2",
                "ruin": false
            }
        },
        {
            "type": "Feature",
            "geometry": {
                "type": "Point",
                "coordinates": [
                    -18.957997579303452,
                    8.86195529170162
                ]
            },
            "properties": {
                "name": "Long Lake",
                "type": "region_3",
                "ruin": false
            }
        },
        {
            "type": "Feature",
            "geometry": {
                "type": "Point",
                "coordinates": [
                    -18.410243436777222,
                    8.291252549593807
                ]
            },
            "properties": {
                "name": "Lonely Hills",
                "type": "region_3",
                "ruin": false
            }
        },
        {
            "type": "Feature",
            "geometry": {
                "type": "Point",
                "coordinates": [
                    -17.66964154871718,
                    7.875199372525998
                ]
            },
            "properties": {
                "name": "The Dreadfort",
                "type": "fort_2",
                "ruin": false
            }
        },
        {
            "type": "Feature",
            "geometry": {
                "type": "Point",
                "coordinates": [
                    -15.954040869151186,
                    8.656969101714068
                ]
            },
            "properties": {
                "name": "Karhold",
                "type": "fort_2",
                "ruin": false
            }
        },
        {
            "type": "Feature",
            "geometry": {
                "type": "Point",
                "coordinates": [
                    -20.017012281679172,
                    8.126428343157144
                ]
            },
            "properties": {
                "name": "Tumbledown Tower",
                "type": "fort_2",
                "ruin": false
            }
        },
        {
            "type": "Feature",
            "geometry": {
                "type": "Point",
                "coordinates": [
                    -20.53668675059788,
                    7.7648731023165425
                ]
            },
            "properties": {
                "name": "Crofter's Village",
                "type": "town",
                "ruin": false
            }
        },
        {
            "type": "Feature",
            "geometry": {
                "type": "Point",
                "coordinates": [
                    -20.120088209469003,
                    7.509469332229131
                ]
            },
            "properties": {
                "name": "Winterfell",
                "type": "fort_1",
                "ruin": false
            }
        },
        {
            "type": "Feature",
            "geometry": {
                "type": "Point",
                "coordinates": [
                    -20.23175379779542,
                    7.104774907506382
                ]
            },
            "properties": {
                "name": "Castle Cerwyn",
                "type": "fort_2",
                "ruin": false
            }
        },
        {
            "type": "Feature",
            "geometry": {
                "type": "Point",
                "coordinates": [
                    -21.657560083814104,
                    7.919836928048639
                ]
            },
            "properties": {
                "name": "The Wolfswood",
                "ruin": false
            }
        },
        {
            "type": "Feature",
            "geometry": {
                "type": "Point",
                "coordinates": [
                    -21.910955072771998,
                    8.820632669767008
                ]
            },
            "properties": {
                "name": "Deepwood Motte",
                "type": "fort_2",
                "ruin": false
            }
        },
        {
            "type": "Feature",
            "geometry": {
                "type": "Point",
                "coordinates": [
                    -23.345428400152173,
                    8.87580101167282
                ]
            },
            "properties": {
                "name": "Sea Dragon Point",
                "type": "region_3",
                "ruin": false
            }
        },
        {
            "type": "Feature",
            "geometry": {
                "type": "Point",
                "coordinates": [
                    -23.064828832265732,
                    6.617407603730655
                ]
            },
            "properties": {
                "name": "The Rills",
                "type": "region_3",
                "ruin": false
            }
        },
        {
            "type": "Feature",
            "geometry": {
                "type": "Point",
                "coordinates": [
                    -24.546545293187933,
                    6.369905773835185
                ]
            },
            "properties": {
                "name": "The Stony Shore",
                "type": "region_3",
                "ruin": false
            }
        },
        {
            "type": "Feature",
            "geometry": {
                "type": "Point",
                "coordinates": [
                    -21.60888135328625,
                    6.540609744923174
                ]
            },
            "properties": {
                "name": "Torrhen's Square",
                "type": "fort_2",
                "ruin": false
            }
        },
        {
            "type": "Feature",
            "geometry": {
                "type": "Point",
                "coordinates": [
                    -23.99393573123652,
                    4.286059621817429
                ]
            },
            "properties": {
                "name": "Blazewater Bay",
                "type": "sea_2",
                "ruin": false
            }
        },
        {
            "type": "Feature",
            "geometry": {
                "type": "Point",
                "coordinates": [
                    -22.237350129775194,
                    4.418815369342099
                ]
            },
            "properties": {
                "name": "Saltspear",
                "type": "sea_2",
                "ruin": false
            }
        },
        {
            "type": "Feature",
            "geometry": {
                "type": "Point",
                "coordinates": [
                    -24.29457385380755,
                    3.347588578211912
                ]
            },
            "properties": {
                "name": "Cape Kraken",
                "type": "region_3",
                "ruin": false
            }
        },
        {
            "type": "Feature",
            "geometry": {
                "type": "Point",
                "coordinates": [
                    -23.45223427124816,
                    3.8179695645077203
                ]
            },
            "properties": {
                "name": "Flint's Finger",
                "type": "fort_2",
                "ruin": false
            }
        },
        {
            "type": "Feature",
            "geometry": {
                "type": "Point",
                "coordinates": [
                    -21.849771309052443,
                    5.387121121331006
                ]
            },
            "properties": {
                "name": "Barrowton",
                "type": "town",
                "ruin": false
            }
        },
        {
            "type": "Feature",
            "geometry": {
                "type": "Point",
                "coordinates": [
                    -21.726461249016495,
                    5.3914667840408725
                ]
            },
            "properties": {
                "name": "Goldgrass",
                "type": "fort_2",
                "ruin": false
            }
        },
        {
            "type": "Feature",
            "geometry": {
                "type": "Point",
                "coordinates": [
                    -20.245578002008074,
                    5.5670386508617895
                ]
            },
            "properties": {
                "name": "The Barrowlands",
                "type": "region_2",
                "ruin": false
            }
        },
        {
            "type": "Feature",
            "geometry": {
                "type": "Point",
                "coordinates": [
                    -17.914217896044278,
                    6.842952110948147
                ]
            },
            "properties": {
                "name": "Hornwood",
                "type": "fort_2",
                "ruin": false
            }
        },
        {
            "type": "Feature",
            "geometry": {
                "type": "Point",
                "coordinates": [
                    -17.931509612813045,
                    6.675529750034201
                ]
            },
            "properties": {
                "name": "Sheepshead Hills",
                "type": "region_3",
                "ruin": false
            }
        },
        {
            "type": "Feature",
            "geometry": {
                "type": "Point",
                "coordinates": [
                    -17.044547840123016,
                    5.643575413329174
                ]
            },
            "properties": {
                "name": "Ramsgate",
                "type": "fort_2",
                "ruin": false
            }
        },
        {
            "type": "Feature",
            "geometry": {
                "type": "Point",
                "coordinates": [
                    -15.600842006140084,
                    5.371545887159272
                ]
            },
            "properties": {
                "name": "Widow's Watch",
                "type": "fort_2",
                "ruin": false
            }
        },
        {
            "type": "Feature",
            "geometry": {
                "type": "Point",
                "coordinates": [
                    -18.89214347637622,
                    5.094479550931169
                ]
            },
            "properties": {
                "name": "White Harbor",
                "type": "large_city",
                "ruin": false
            }
        },
        {
            "type": "Feature",
            "geometry": {
                "type": "Point",
                "coordinates": [
                    -18.39947782730559,
                    4.195872127427094
                ]
            },
            "properties": {
                "name": "Oldcastle",
                "type": "fort_2",
                "ruin": false
            }
        },
        {
            "type": "Feature",
            "geometry": {
                "type": "Point",
                "coordinates": [
                    -19.852841492060804,
                    4.554469416695554
                ]
            },
            "properties": {
                "name": "Moat Cailin",
                "type": "fort_2",
                "ruin": false
            }
        },
        {
            "type": "Feature",
            "geometry": {
                "type": "Point",
                "coordinates": [
                    -20.635612039475035,
                    3.184779110891114
                ]
            },
            "properties": {
                "name": "Greywater Watch",
                "type": "fort_2",
                "ruin": false
            }
        },
        {
            "type": "Feature",
            "geometry": {
                "type": "Point",
                "coordinates": [
                    -18.012755506694816,
                    3.584209602819314
                ]
            },
            "properties": {
                "name": "The Three Sisters",
                "type": "region_2",
                "ruin": false
            }
        },
        {
            "type": "Feature",
            "geometry": {
                "type": "Point",
                "coordinates": [
                    -18.028922239594436,
                    3.7213476314478697
                ]
            },
            "properties": {
                "name": "Sweetsister",
                "type": "region_3",
                "ruin": false
            }
        },
        {
            "type": "Feature",
            "geometry": {
                "type": "Point",
                "coordinates": [
                    -17.693462532159486,
                    3.652781236513377
                ]
            },
            "properties": {
                "name": "Littlesister",
                "type": "region_3",
                "ruin": false
            }
        },
        {
            "type": "Feature",
            "geometry": {
                "type": "Point",
                "coordinates": [
                    -18.30375669871424,
                    3.576142011984075
                ]
            },
            "properties": {
                "name": "Longsister",
                "type": "region_3",
                "ruin": false
            }
        },
        {
            "type": "Feature",
            "geometry": {
                "type": "Point",
                "coordinates": [
                    -18.89788413239887,
                    3.366360195861887
                ]
            },
            "properties": {
                "name": "The Bite",
                "type": "sea_2",
                "ruin": false
            }
        },
        {
            "type": "Feature",
            "geometry": {
                "type": "Point",
                "coordinates": [
                    -16.646666577579452,
                    3.4309133902273317
                ]
            },
            "properties": {
                "name": "Pebble",
                "type": "region_3",
                "ruin": false
            }
        },
        {
            "type": "Feature",
            "geometry": {
                "type": "Point",
                "coordinates": [
                    -15.6919503173051,
                    3.5621657750968723
                ]
            },
            "properties": {
                "name": "The Paps",
                "type": "region_3",
                "ruin": false
            }
        },
        {
            "type": "Feature",
            "geometry": {
                "type": "Point",
                "coordinates": [
                    -16.1971607200787,
                    3.0174397739093735
                ]
            },
            "properties": {
                "name": "The Fingers",
                "type": "region_2",
                "ruin": false
            }
        },
        {
            "type": "Feature",
            "geometry": {
                "type": "Point",
                "coordinates": [
                    -23.303281714489316,
                    2.3726683299621953
                ]
            },
            "properties": {
                "name": "Ironman's Bay",
                "type": "sea_2",
                "ruin": false
            }
        },
        {
            "type": "Feature",
            "geometry": {
                "type": "Point",
                "coordinates": [
                    -24.494140085240986,
                    1.6313145707258059
                ]
            },
            "properties": {
                "name": "Sealskin Point",
                "type": "fort_2",
                "ruin": false
            }
        },
        {
            "type": "Feature",
            "geometry": {
                "type": "Point",
                "coordinates": [
                    -24.634333813986757,
                    1.5371027206241479
                ]
            },
            "properties": {
                "name": "Crow Spike Keep",
                "type": "fort_2",
                "ruin": false
            }
        },
        {
            "type": "Feature",
            "geometry": {
                "type": "Point",
                "coordinates": [
                    -24.614306138433733,
                    1.3616222632628023
                ]
            },
            "properties": {
                "name": "Downdelving",
                "type": "fort_2",
                "ruin": false
            }
        },
        {
            "type": "Feature",
            "geometry": {
                "type": "Point",
                "coordinates": [
                    -24.4646876211238,
                    1.298512826998845
                ]
            },
            "properties": {
                "name": "Nagga's Hill",
                "type": "fort_2",
                "ruin": false
            }
        },
        {
            "type": "Feature",
            "geometry": {
                "type": "Point",
                "coordinates": [
                    -24.332740582314386,
                    1.2219549489810788
                ]
            },
            "properties": {
                "name": "Hardstone Hills",
                "type": "region_3",
                "ruin": false
            }
        },
        {
            "type": "Feature",
            "geometry": {
                "type": "Point",
                "coordinates": [
                    -24.458797128302848,
                    1.1536399191669489
                ]
            },
            "properties": {
                "name": "Hammerhorn",
                "type": "fort_2",
                "ruin": false
            }
        },
        {
            "type": "Feature",
            "geometry": {
                "type": "Point",
                "coordinates": [
                    -24.403426495937765,
                    1.0570538250625674
                ]
            },
            "properties": {
                "name": "Sparr Keep",
                "type": "fort_2",
                "ruin": false
            }
        },
        {
            "type": "Feature",
            "geometry": {
                "type": "Point",
                "coordinates": [
                    -24.484504208242953,
                    0.9141029139377395
                ]
            },
            "properties": {
                "name": "Sunderly Castle",
                "type": "fort_2",
                "ruin": false
            }
        },
        {
            "type": "Feature",
            "geometry": {
                "type": "Point",
                "coordinates": [
                    -24.263021678833667,
                    0.856382976920429
                ]
            },
            "properties": {
                "name": "Saltcliffe",
                "type": "fort_2",
                "ruin": false
            }
        },
        {
            "type": "Feature",
            "geometry": {
                "type": "Point",
                "coordinates": [
                    -24.158067823083343,
                    1.4629766288171595
                ]
            },
            "properties": {
                "name": "Shatterstone",
                "type": "fort_2",
                "ruin": false
            }
        },
        {
            "type": "Feature",
            "geometry": {
                "type": "Point",
                "coordinates": [
                    -24.11801247204008,
                    1.432355843301977
                ]
            },
            "properties": {
                "name": "Stonehouse",
                "type": "fort_2",
                "ruin": false
            }
        },
        {
            "type": "Feature",
            "geometry": {
                "type": "Point",
                "coordinates": [
                    -24.161602118763682,
                    1.3899571589526971
                ]
            },
            "properties": {
                "name": "Drumm Castle",
                "type": "fort_2",
                "ruin": false
            }
        },
        {
            "type": "Feature",
            "geometry": {
                "type": "Point",
                "coordinates": [
                    -24.023764587120922,
                    1.1626406952198778
                ]
            },
            "properties": {
                "name": "Pebbleton",
                "type": "town",
                "ruin": false
            }
        },
        {
            "type": "Feature",
            "geometry": {
                "type": "Point",
                "coordinates": [
                    -23.755158115232746,
                    1.4994854799173964
                ]
            },
            "properties": {
                "name": "Orkwood",
                "type": "fort_2",
                "ruin": false
            }
        },
        {
            "type": "Feature",
            "geometry": {
                "type": "Point",
                "coordinates": [
                    -23.54074417691288,
                    1.4594434826936435
                ]
            },
            "properties": {
                "name": "Tawney Keep",
                "type": "fort_2",
                "ruin": false
            }
        },
        {
            "type": "Feature",
            "geometry": {
                "type": "Point",
                "coordinates": [
                    -23.413509531605598,
                    1.7361887290844606
                ]
            },
            "properties": {
                "name": "Blacktyde Castle",
                "type": "fort_2",
                "ruin": false
            }
        },
        {
            "type": "Feature",
            "geometry": {
                "type": "Point",
                "coordinates": [
                    -23.782107895528725,
                    1.012507496379797
                ]
            },
            "properties": {
                "name": "Iron Holt",
                "type": "town",
                "ruin": false
            }
        },
        {
            "type": "Feature",
            "geometry": {
                "type": "Point",
                "coordinates": [
                    -23.79271078254348,
                    0.9276965657664249
                ]
            },
            "properties": {
                "name": "Lordsport",
                "type": "town",
                "ruin": false
            }
        },
        {
            "type": "Feature",
            "geometry": {
                "type": "Point",
                "coordinates": [
                    -23.809204162378876,
                    0.8794005322282459
                ]
            },
            "properties": {
                "name": "Pyke",
                "type": "fort_1",
                "ruin": false
            }
        },
        {
            "type": "Feature",
            "geometry": {
                "type": "Point",
                "coordinates": [
                    -23.411006847257852,
                    1.1997901787122203
                ]
            },
            "properties": {
                "name": "Tower of Glimmering",
                "type": "fort_2",
                "ruin": false
            }
        },
        {
            "type": "Feature",
            "geometry": {
                "type": "Point",
                "coordinates": [
                    -23.15418136097375,
                    1.4742121488869344
                ]
            },
            "properties": {
                "name": "Grey Garden",
                "type": "fort_2",
                "ruin": false
            }
        },
        {
            "type": "Feature",
            "geometry": {
                "type": "Point",
                "coordinates": [
                    -23.237826358765318,
                    1.0878931354102832
                ]
            },
            "properties": {
                "name": "Volmark",
                "type": "fort_2",
                "ruin": false
            }
        },
        {
            "type": "Feature",
            "geometry": {
                "type": "Point",
                "coordinates": [
                    -23.309690370965427,
                    1.3081492733608258
                ]
            },
            "properties": {
                "name": "Kenning Keep",
                "type": "fort_2",
                "ruin": false
            }
        },
        {
            "type": "Feature",
            "geometry": {
                "type": "Point",
                "coordinates": [
                    -23.246073048651255,
                    1.2221690518310027
                ]
            },
            "properties": {
                "name": "Stonetree",
                "type": "fort_2",
                "ruin": false
            }
        },
        {
            "type": "Feature",
            "geometry": {
                "type": "Point",
                "coordinates": [
                    -23.03270089965355,
                    1.329349430735192
                ]
            },
            "properties": {
                "name": "Ten Towers",
                "type": "fort_2",
                "ruin": false
            }
        },
        {
            "type": "Feature",
            "geometry": {
                "type": "Point",
                "coordinates": [
                    -22.98439885864849,
                    1.2504368352592934
                ]
            },
            "properties": {
                "name": "Harbor Hall",
                "type": "fort_2",
                "ruin": false
            }
        },
        {
            "type": "Feature",
            "geometry": {
                "type": "Point",
                "coordinates": [
                    -23.050372378003004,
                    1.1677122487322293
                ]
            },
            "properties": {
                "name": "Harridan Hill",
                "type": "fort_2",
                "ruin": false
            }
        },
        {
            "type": "Feature",
            "geometry": {
                "type": "Point",
                "coordinates": [
                    -23.024454209666573,
                    1.095862261361674
                ]
            },
            "properties": {
                "name": "Castle Myre",
                "type": "fort_2",
                "ruin": false
            }
        },
        {
            "type": "Feature",
            "geometry": {
                "type": "Point",
                "coordinates": [
                    -23.484778087322013,
                    0.5334287386561414
                ]
            },
            "properties": {
                "name": "Banefort",
                "type": "fort_2",
                "ruin": false
            }
        },
        {
            "type": "Feature",
            "geometry": {
                "type": "Point",
                "coordinates": [
                    -23.65497126882744,
                    -0.19068702258400094
                ]
            },
            "properties": {
                "name": "The Crag",
                "type": "fort_2",
                "ruin": false
            }
        },
        {
            "type": "Feature",
            "geometry": {
                "type": "Point",
                "coordinates": [
                    -23.110319803985618,
                    -0.06012487238177755
                ]
            },
            "properties": {
                "name": "Pendric Hills",
                "type": "region_3",
                "ruin": false
            }
        },
        {
            "type": "Feature",
            "geometry": {
                "type": "Point",
                "coordinates": [
                    -23.1205201147649,
                    -0.31498910765979815
                ]
            },
            "properties": {
                "name": "Nunn's Deep",
                "type": "town",
                "ruin": false
            }
        },
        {
            "type": "Feature",
            "geometry": {
                "type": "Point",
                "coordinates": [
                    -23.442585010825326,
                    -0.5644684543755574
                ]
            },
            "properties": {
                "name": "Castamere",
                "type": "town",
                "ruin": true
            }
        },
        {
            "type": "Feature",
            "geometry": {
                "type": "Point",
                "coordinates": [
                    -23.109179801540193,
                    -0.5622005013313753
                ]
            },
            "properties": {
                "name": "Ashemark",
                "type": "fort_2",
                "ruin": false
            }
        },
        {
            "type": "Feature",
            "geometry": {
                "type": "Point",
                "coordinates": [
                    -23.47206982528823,
                    -0.9182560470176213
                ]
            },
            "properties": {
                "name": "Tarbeck Hall",
                "type": "fort_2",
                "ruin": true
            }
        },
        {
            "type": "Feature",
            "geometry": {
                "type": "Point",
                "coordinates": [
                    -24.22733468718849,
                    -0.7844551534246307
                ]
            },
            "properties": {
                "name": "Fair Isle",
                "type": "region_3",
                "ruin": false
            }
        },
        {
            "type": "Feature",
            "geometry": {
                "type": "Point",
                "coordinates": [
                    -24.10712736682686,
                    -0.6869365109762526
                ]
            },
            "properties": {
                "name": "Faircastle",
                "type": "fort_2",
                "ruin": false
            }
        },
        {
            "type": "Feature",
            "geometry": {
                "type": "Point",
                "coordinates": [
                    -24.764221482000266,
                    -1.5130015049737864
                ]
            },
            "properties": {
                "name": "Kayce",
                "type": "town",
                "ruin": false
            }
        },
        {
            "type": "Feature",
            "geometry": {
                "type": "Point",
                "coordinates": [
                    -24.89803717826419,
                    -1.8167932427502365
                ]
            },
            "properties": {
                "name": "Feastfires",
                "type": "fort_2",
                "ruin": false
            }
        },
        {
            "type": "Feature",
            "geometry": {
                "type": "Point",
                "coordinates": [
                    -24.015760808088885,
                    -1.705710693488271
                ]
            },
            "properties": {
                "name": "Casterly Rock",
                "type": "fort_1",
                "ruin": false
            }
        },
        {
            "type": "Feature",
            "geometry": {
                "type": "Point",
                "coordinates": [
                    -24.027101121302707,
                    -1.8077255299730979
                ]
            },
            "properties": {
                "name": "Lannisport",
                "type": "large_city",
                "ruin": false
            }
        },
        {
            "type": "Feature",
            "geometry": {
                "type": "Point",
                "coordinates": [
                    -23.664211097552112,
                    -1.8802659451316401
                ]
            },
            "properties": {
                "name": "Clegane Keep",
                "type": "fort_2",
                "ruin": false
            }
        },
        {
            "type": "Feature",
            "geometry": {
                "type": "Point",
                "coordinates": [
                    -24.544219405522455,
                    -2.95209014400578
                ]
            },
            "properties": {
                "name": "Crakehall",
                "type": "fort_2",
                "ruin": false
            }
        },
        {
            "type": "Feature",
            "geometry": {
                "type": "Point",
                "coordinates": [
                    -23.605241469159125,
                    -2.791259966123178
                ]
            },
            "properties": {
                "name": "Cornfield",
                "type": "fort_2",
                "ruin": false
            }
        },
        {
            "type": "Feature",
            "geometry": {
                "type": "Point",
                "coordinates": [
                    -23.36123936749516,
                    -3.4135518789030215
                ]
            },
            "properties": {
                "name": "Red Lake",
                "type": "fort_2",
                "ruin": false
            }
        },
        {
            "type": "Feature",
            "geometry": {
                "type": "Point",
                "coordinates": [
                    -23.456497998727883,
                    -3.499581460247512
                ]
            },
            "properties": {
                "name": "Red Lake",
                "type": "sea_2",
                "ruin": false
            }
        },
        {
            "type": "Feature",
            "geometry": {
                "type": "Point",
                "coordinates": [
                    -24.059802663474358,
                    -4.189779541852857
                ]
            },
            "properties": {
                "name": "Old Oak",
                "type": "fort_2",
                "ruin": false
            }
        },
        {
            "type": "Feature",
            "geometry": {
                "type": "Point",
                "coordinates": [
                    -24.08928747791407,
                    -4.547091788251095
                ]
            },
            "properties": {
                "name": "Greenshield",
                "type": "region_3",
                "ruin": false
            }
        },
        {
            "type": "Feature",
            "geometry": {
                "type": "Point",
                "coordinates": [
                    -24.29114505366212,
                    -4.7121201040575045
                ]
            },
            "properties": {
                "name": "Greyshield",
                "type": "region_3",
                "ruin": false
            }
        },
        {
            "type": "Feature",
            "geometry": {
                "type": "Point",
                "coordinates": [
                    -24.06433878880958,
                    -4.854510361342321
                ]
            },
            "properties": {
                "name": "Southshield",
                "type": "region_3",
                "ruin": false
            }
        },
        {
            "type": "Feature",
            "geometry": {
                "type": "Point",
                "coordinates": [
                    -23.708252953024328,
                    -4.7595868078858246
                ]
            },
            "properties": {
                "name": "Oakenshield",
                "type": "region_3",
                "ruin": false
            }
        },
        {
            "type": "Feature",
            "geometry": {
                "type": "Point",
                "coordinates": [
                    -24.270732489806818,
                    -4.723421995484912
                ]
            },
            "properties": {
                "name": "Grimston",
                "type": "fort_2",
                "ruin": false
            }
        },
        {
            "type": "Feature",
            "geometry": {
                "type": "Point",
                "coordinates": [
                    -23.628870760364208,
                    -4.7437649354853875
                ]
            },
            "properties": {
                "name": "Oakenshield Castle",
                "type": "fort_2",
                "ruin": false
            }
        },
        {
            "type": "Feature",
            "geometry": {
                "type": "Point",
                "coordinates": [
                    -23.578608795301705,
                    -4.7643382529522
                ]
            },
            "properties": {
                "name": "Hewett's Town",
                "type": "town",
                "ruin": false
            }
        },
        {
            "type": "Feature",
            "geometry": {
                "type": "Point",
                "coordinates": [
                    -23.576812716248696,
                    -5.324331405800834
                ]
            },
            "properties": {
                "name": "Mouth of the Mander",
                "type": "sea_2",
                "ruin": false
            }
        },
        {
            "type": "Feature",
            "geometry": {
                "type": "Point",
                "coordinates": [
                    -22.518562723611183,
                    -2.009264148911498
                ]
            },
            "properties": {
                "name": "Silverhill",
                "type": "fort_2",
                "ruin": false
            }
        },
        {
            "type": "Feature",
            "geometry": {
                "type": "Point",
                "coordinates": [
                    -22.405023936750496,
                    -1.6130731690670217
                ]
            },
            "properties": {
                "name": "Deep Den",
                "type": "fort_2",
                "ruin": false
            }
        },
        {
            "type": "Feature",
            "geometry": {
                "type": "Point",
                "coordinates": [
                    -22.412991570938402,
                    -1.288496590731711
                ]
            },
            "properties": {
                "name": "Hornvale",
                "type": "fort_2",
                "ruin": false
            }
        },
        {
            "type": "Feature",
            "geometry": {
                "type": "Point",
                "coordinates": [
                    -23.172151893131712,
                    -0.9971748685245103
                ]
            },
            "properties": {
                "name": "Sarsfield",
                "type": "fort_2",
                "ruin": false
            }
        },
        {
            "type": "Feature",
            "geometry": {
                "type": "Point",
                "coordinates": [
                    -22.395733800614124,
                    -0.7337905610474138
                ]
            },
            "properties": {
                "name": "Golden Tooth",
                "type": "fort_2",
                "ruin": false
            }
        },
        {
            "type": "Feature",
            "geometry": {
                "type": "Point",
                "coordinates": [
                    -22.939524832439275,
                    -0.9747845264449069
                ]
            },
            "properties": {
                "name": "Oxcross",
                "type": "town",
                "ruin": false
            }
        },
        {
            "type": "Feature",
            "geometry": {
                "type": "Point",
                "coordinates": [
                    -22.32843277898587,
                    -3.169187171863115
                ]
            },
            "properties": {
                "name": "Brandybottom",
                "type": "town",
                "ruin": false
            }
        },
        {
            "type": "Feature",
            "geometry": {
                "type": "Point",
                "coordinates": [
                    -22.237322506352,
                    -3.2203275887784457
                ]
            },
            "properties": {
                "name": "Dosk",
                "type": "town",
                "ruin": false
            }
        },
        {
            "type": "Feature",
            "geometry": {
                "type": "Point",
                "coordinates": [
                    -22.178172212590567,
                    -3.314110843863233
                ]
            },
            "properties": {
                "name": "Standfast",
                "type": "fort_2",
                "ruin": false
            }
        },
        {
            "type": "Feature",
            "geometry": {
                "type": "Point",
                "coordinates": [
                    -22.086693681301,
                    -3.1392314820786
                ]
            },
            "properties": {
                "name": "Horseshoe Hills",
                "type": "region_3",
                "ruin": false
            }
        },
        {
            "type": "Feature",
            "geometry": {
                "type": "Point",
                "coordinates": [
                    -22.082332011130433,
                    -3.407036367523503
                ]
            },
            "properties": {
                "name": "Leafy Lake",
                "type": "sea_2",
                "ruin": false
            }
        },
        {
            "type": "Feature",
            "geometry": {
                "type": "Point",
                "coordinates": [
                    -21.95366274110924,
                    -3.2306850667501834
                ]
            },
            "properties": {
                "name": "Stackhouse",
                "type": "fort_2",
                "ruin": false
            }
        },
        {
            "type": "Feature",
            "geometry": {
                "type": "Point",
                "coordinates": [
                    -22.098366923535423,
                    -3.2828753126058814
                ]
            },
            "properties": {
                "name": "Coldmoat",
                "type": "fort_2",
                "ruin": false
            }
        },
        {
            "type": "Feature",
            "geometry": {
                "type": "Point",
                "coordinates": [
                    -22.36806156202053,
                    -3.4049469903717835
                ]
            },
            "properties": {
                "name": "Cobble Cover",
                "type": "town",
                "ruin": false
            }
        },
        {
            "type": "Feature",
            "geometry": {
                "type": "Point",
                "coordinates": [
                    -22.440711290149835,
                    -3.596303746987573
                ]
            },
            "properties": {
                "name": "Goldengrove",
                "type": "fort_2",
                "ruin": false
            }
        },
        {
            "type": "Feature",
            "geometry": {
                "type": "Point",
                "coordinates": [
                    -19.72600711337998,
                    -3.1066753824761975
                ]
            },
            "properties": {
                "name": "Tumbleton",
                "type": "town",
                "ruin": false
            }
        },
        {
            "type": "Feature",
            "geometry": {
                "type": "Point",
                "coordinates": [
                    -20.591414122619625,
                    -3.655738911372225
                ]
            },
            "properties": {
                "name": "Bitterbridge",
                "type": "town",
                "ruin": false
            }
        },
        {
            "type": "Feature",
            "geometry": {
                "type": "Point",
                "coordinates": [
                    -19.769426258077004,
                    -4.040872348467133
                ]
            },
            "properties": {
                "name": "Grassfield Keep",
                "type": "fort_2",
                "ruin": false
            }
        },
        {
            "type": "Feature",
            "geometry": {
                "type": "Point",
                "coordinates": [
                    -19.834382573724383,
                    -4.051671415932205
                ]
            },
            "properties": {
                "name": "Grassy Vale",
                "type": "town",
                "ruin": false
            }
        },
        {
            "type": "Feature",
            "geometry": {
                "type": "Point",
                "coordinates": [
                    -21.062164206841913,
                    -4.239790667265623
                ]
            },
            "properties": {
                "name": "Longtable",
                "type": "fort_2",
                "ruin": false
            }
        },
        {
            "type": "Feature",
            "geometry": {
                "type": "Point",
                "coordinates": [
                    -21.871411639358598,
                    -4.506955049154428
                ]
            },
            "properties": {
                "name": "New Barrel",
                "type": "fort_2",
                "ruin": false
            }
        },
        {
            "type": "Feature",
            "geometry": {
                "type": "Point",
                "coordinates": [
                    -22.173040628980004,
                    -4.623713708517059
                ]
            },
            "properties": {
                "name": "Appleton",
                "type": "town",
                "ruin": false
            }
        },
        {
            "type": "Feature",
            "geometry": {
                "type": "Point",
                "coordinates": [
                    -21.564075169719416,
                    -4.672270730012414
                ]
            },
            "properties": {
                "name": "Cider Hall",
                "type": "fort_2",
                "ruin": false
            }
        },
        {
            "type": "Feature",
            "geometry": {
                "type": "Point",
                "coordinates": [
                    -20.87120780228227,
                    -4.841588178853044
                ]
            },
            "properties": {
                "name": "Ashford",
                "type": "fort_2",
                "ruin": false
            }
        },
        {
            "type": "Feature",
            "geometry": {
                "type": "Point",
                "coordinates": [
                    -20.833316618147933,
                    -4.9224889917062455
                ]
            },
            "properties": {
                "name": "Ashford Meadow",
                "type": "town",
                "ruin": false
            }
        },
        {
            "type": "Feature",
            "geometry": {
                "type": "Point",
                "coordinates": [
                    -19.98617800145317,
                    -5.229821005346949
                ]
            },
            "properties": {
                "name": "Harvest Hall",
                "type": "fort_2",
                "ruin": false
            }
        },
        {
            "type": "Feature",
            "geometry": {
                "type": "Point",
                "coordinates": [
                    -21.9538130624303,
                    -5.3241474723200355
                ]
            },
            "properties": {
                "name": "Whitegrove",
                "type": "fort_2",
                "ruin": false
            }
        },
        {
            "type": "Feature",
            "geometry": {
                "type": "Point",
                "coordinates": [
                    -22.54653944278195,
                    -5.227125754195299
                ]
            },
            "properties": {
                "name": "Highgarden",
                "type": "fort_1",
                "ruin": false
            }
        },
        {
            "type": "Feature",
            "geometry": {
                "type": "Point",
                "coordinates": [
                    -22.779299573858196,
                    -5.466957064481733
                ]
            },
            "properties": {
                "name": "Dunstonbury",
                "type": "fort_2",
                "ruin": false
            }
        },
        {
            "type": "Feature",
            "geometry": {
                "type": "Point",
                "coordinates": [
                    -22.07289964110163,
                    -5.558552887519028
                ]
            },
            "properties": {
                "name": "Starpike",
                "type": "fort_2",
                "ruin": false
            }
        },
        {
            "type": "Feature",
            "geometry": {
                "type": "Point",
                "coordinates": [
                    -22.394974706233057,
                    -5.935559496909036
                ]
            },
            "properties": {
                "name": "Horn Hill",
                "type": "fort_2",
                "ruin": false
            }
        },
        {
            "type": "Feature",
            "geometry": {
                "type": "Point",
                "coordinates": [
                    -21.881072725433825,
                    -6.169713353444891
                ]
            },
            "properties": {
                "name": "Red Mountains",
                "type": "region_2",
                "ruin": false
            }
        },
        {
            "type": "Feature",
            "geometry": {
                "type": "Point",
                "coordinates": [
                    -21.11512950295264,
                    -6.61888805708702
                ]
            },
            "properties": {
                "name": "Prince's Pass",
                "type": "region_3",
                "ruin": false
            }
        },
        {
            "type": "Feature",
            "geometry": {
                "type": "Point",
                "coordinates": [
                    -21.08806437142431,
                    -5.822483842978343
                ]
            },
            "properties": {
                "name": "Dornish Marches",
                "type": "region_3",
                "ruin": false
            }
        },
        {
            "type": "Feature",
            "geometry": {
                "type": "Point",
                "coordinates": [
                    -20.99062989791321,
                    -6.376866843763054
                ]
            },
            "properties": {
                "name": "Tower of Joy",
                "type": "fort_2",
                "ruin": true
            }
        },
        {
            "type": "Feature",
            "geometry": {
                "type": "Point",
                "coordinates": [
                    -20.25175180735306,
                    -6.21276499033263
                ]
            },
            "properties": {
                "name": "Vulture's Roost",
                "type": "fort_2",
                "ruin": true
            }
        },
        {
            "type": "Feature",
            "geometry": {
                "type": "Point",
                "coordinates": [
                    -20.909434503348507,
                    -6.73179097194884
                ]
            },
            "properties": {
                "name": "Kingsgrave",
                "type": "fort_2",
                "ruin": false
            }
        },
        {
            "type": "Feature",
            "geometry": {
                "type": "Point",
                "coordinates": [
                    -20.8390651613484,
                    -7.19119151500179
                ]
            },
            "properties": {
                "name": "Skyreach",
                "type": "fort_2",
                "ruin": false
            }
        },
        {
            "type": "Feature",
            "geometry": {
                "type": "Point",
                "coordinates": [
                    -21.943961518488663,
                    -6.837600505439966
                ]
            },
            "properties": {
                "name": "Blackmont",
                "type": "fort_2",
                "ruin": false
            }
        },
        {
            "type": "Feature",
            "geometry": {
                "type": "Point",
                "coordinates": [
                    -21.98562093179723,
                    -7.2569527952406645
                ]
            },
            "properties": {
                "name": "High Hermitage",
                "type": "fort_2",
                "ruin": false
            }
        },
        {
            "type": "Feature",
            "geometry": {
                "type": "Point",
                "coordinates": [
                    -22.372458340912402,
                    -7.602183021731761
                ]
            },
            "properties": {
                "name": "Starfall",
                "type": "fort_2",
                "ruin": false
            }
        },
        {
            "type": "Feature",
            "geometry": {
                "type": "Point",
                "coordinates": [
                    -23.163987193049707,
                    -6.698718577458777
                ]
            },
            "properties": {
                "name": "Uplands",
                "type": "fort_2",
                "ruin": false
            }
        },
        {
            "type": "Feature",
            "geometry": {
                "type": "Point",
                "coordinates": [
                    -23.988248441696783,
                    -6.858281614437502
                ]
            },
            "properties": {
                "name": "Oldtown",
                "type": "large_city",
                "ruin": false
            }
        },
        {
            "type": "Feature",
            "geometry": {
                "type": "Point",
                "coordinates": [
                    -23.759121668593423,
                    -6.38830876420883
                ]
            },
            "properties": {
                "name": "Honeyholt",
                "type": "fort_2",
                "ruin": false
            }
        },
        {
            "type": "Feature",
            "geometry": {
                "type": "Point",
                "coordinates": [
                    -23.869221546549795,
                    -5.941581914002981
                ]
            },
            "properties": {
                "name": "Brightwater Keep",
                "type": "fort_2",
                "ruin": false
            }
        },
        {
            "type": "Feature",
            "geometry": {
                "type": "Point",
                "coordinates": [
                    -24.589334261996555,
                    -5.82022146606819
                ]
            },
            "properties": {
                "name": "Bandallon",
                "type": "fort_2",
                "ruin": false
            }
        },
        {
            "type": "Feature",
            "geometry": {
                "type": "Point",
                "coordinates": [
                    -24.68455577809806,
                    -7.209720943304859
                ]
            },
            "properties": {
                "name": "Blackcrown",
                "type": "fort_2",
                "ruin": false
            }
        },
        {
            "type": "Feature",
            "geometry": {
                "type": "Point",
                "coordinates": [
                    -24.45542900499177,
                    -7.436978478661928
                ]
            },
            "properties": {
                "name": "Three Towers",
                "type": "fort_2",
                "ruin": false
            }
        },
        {
            "type": "Feature",
            "geometry": {
                "type": "Point",
                "coordinates": [
                    -24.402116754903147,
                    -8.187531454133463
                ]
            },
            "properties": {
                "name": "Redwyne Straits",
                "type": "sea_2",
                "ruin": false
            }
        },
        {
            "type": "Feature",
            "geometry": {
                "type": "Point",
                "coordinates": [
                    -23.432995549994843,
                    -8.323678216138575
                ]
            },
            "properties": {
                "name": "Sunhouse",
                "type": "fort_2",
                "ruin": false
            }
        },
        {
            "type": "Feature",
            "geometry": {
                "type": "Point",
                "coordinates": [
                    -23.5063675024104,
                    -8.335777871769153
                ]
            },
            "properties": {
                "name": "Cuy",
                "type": "town",
                "ruin": false
            }
        },
        {
            "type": "Feature",
            "geometry": {
                "type": "Point",
                "coordinates": [
                    -24.411288248907397,
                    -8.592806205896167
                ]
            },
            "properties": {
                "name": "Isle of Pigs",
                "type": "region_3",
                "ruin": false
            }
        },
        {
            "type": "Feature",
            "geometry": {
                "type": "Point",
                "coordinates": [
                    -24.79649099910563,
                    -8.695569070707691
                ]
            },
            "properties": {
                "name": "Vinetown",
                "type": "town",
                "ruin": false
            }
        },
        {
            "type": "Feature",
            "geometry": {
                "type": "Point",
                "coordinates": [
                    -24.918777586491842,
                    -8.535367744601032
                ]
            },
            "properties": {
                "name": "The Arbor",
                "type": "region_3",
                "ruin": false
            }
        },
        {
            "type": "Feature",
            "geometry": {
                "type": "Point",
                "coordinates": [
                    -25.03570637789082,
                    -8.3871667907718
                ]
            },
            "properties": {
                "name": "Ryamsport",
                "type": "town",
                "ruin": false
            }
        },
        {
            "type": "Feature",
            "geometry": {
                "type": "Point",
                "coordinates": [
                    -25.251302427431796,
                    -8.242263536176338
                ]
            },
            "properties": {
                "name": "Starfish Harbor",
                "type": "town",
                "ruin": false
            }
        },
        {
            "type": "Feature",
            "geometry": {
                "type": "Point",
                "coordinates": [
                    -25.08858842783019,
                    -8.101334452129336
                ]
            },
            "properties": {
                "name": "Mermaid's Palace",
                "type": "region_3",
                "ruin": false
            }
        },
        {
            "type": "Feature",
            "geometry": {
                "type": "Point",
                "coordinates": [
                    -21.002377204821073,
                    -7.982704729584711
                ]
            },
            "properties": {
                "name": "Dornish Desert",
                "type": "region_2",
                "ruin": false
            }
        },
        {
            "type": "Feature",
            "geometry": {
                "type": "Point",
                "coordinates": [
                    -21.334871039081975,
                    -8.237418254761678
                ]
            },
            "properties": {
                "name": "Sandstone",
                "type": "fort_2",
                "ruin": false
            }
        },
        {
            "type": "Feature",
            "geometry": {
                "type": "Point",
                "coordinates": [
                    -20.209797500396576,
                    -8.209995350931209
                ]
            },
            "properties": {
                "name": "Hellholt",
                "type": "fort_2",
                "ruin": false
            }
        },
        {
            "type": "Feature",
            "geometry": {
                "type": "Point",
                "coordinates": [
                    -20.03808066338513,
                    -8.68028058293811
                ]
            },
            "properties": {
                "name": "Hellgate Hall",
                "type": "fort_2",
                "ruin": false
            }
        },
        {
            "type": "Feature",
            "geometry": {
                "type": "Point",
                "coordinates": [
                    -19.485925461195762,
                    -8.169411677518056
                ]
            },
            "properties": {
                "name": "The Red Dunes",
                "type": "region_3",
                "ruin": false
            }
        },
        {
            "type": "Feature",
            "geometry": {
                "type": "Point",
                "coordinates": [
                    -19.46610209604998,
                    -7.078643612320917
                ]
            },
            "properties": {
                "name": "Yronwood",
                "type": "fort_2",
                "ruin": false
            }
        },
        {
            "type": "Feature",
            "geometry": {
                "type": "Point",
                "coordinates": [
                    -18.652978017254725,
                    -6.74594105778101
                ]
            },
            "properties": {
                "name": "Ghaston Grey",
                "type": "fort_2",
                "ruin": false
            }
        },
        {
            "type": "Feature",
            "geometry": {
                "type": "Point",
                "coordinates": [
                    -17.83161281604373,
                    -7.4029340847688445
                ]
            },
            "properties": {
                "name": "The Tor",
                "type": "fort_2",
                "ruin": false
            }
        },
        {
            "type": "Feature",
            "geometry": {
                "type": "Point",
                "coordinates": [
                    -18.76577837982674,
                    -8.211197371173029
                ]
            },
            "properties": {
                "name": "Vaith",
                "type": "fort_2",
                "ruin": false
            }
        },
        {
            "type": "Feature",
            "geometry": {
                "type": "Point",
                "coordinates": [
                    -17.87299011765768,
                    -8.713865086348022
                ]
            },
            "properties": {
                "name": "Saltshore",
                "type": "fort_2",
                "ruin": false
            }
        },
        {
            "type": "Feature",
            "geometry": {
                "type": "Point",
                "coordinates": [
                    -17.559827465268995,
                    -8.064350914353412
                ]
            },
            "properties": {
                "name": "Godsgrace",
                "type": "fort_2",
                "ruin": false
            }
        },
        {
            "type": "Feature",
            "geometry": {
                "type": "Point",
                "coordinates": [
                    -16.765932672139854,
                    -8.175850372688657
                ]
            },
            "properties": {
                "name": "Shandystone",
                "type": "fort_2",
                "ruin": false
            }
        },
        {
            "type": "Feature",
            "geometry": {
                "type": "Point",
                "coordinates": [
                    -16.377893911082992,
                    -8.433704287532606
                ]
            },
            "properties": {
                "name": "Planky Town",
                "type": "town",
                "ruin": false
            }
        },
        {
            "type": "Feature",
            "geometry": {
                "type": "Point",
                "coordinates": [
                    -16.36610545712196,
                    -8.575941868580841
                ]
            },
            "properties": {
                "name": "Lemonwood",
                "type": "fort_2",
                "ruin": false
            }
        },
        {
            "type": "Feature",
            "geometry": {
                "type": "Point",
                "coordinates": [
                    -15.68944820022449,
                    -8.198081424924254
                ]
            },
            "properties": {
                "name": "Sunspear",
                "type": "fort_1",
                "ruin": false
            }
        },
        {
            "type": "Feature",
            "geometry": {
                "type": "Point",
                "coordinates": [
                    -15.748390470004608,
                    -8.214416272170297
                ]
            },
            "properties": {
                "name": "Shadow City",
                "type": "small_city",
                "ruin": false
            }
        },
        {
            "type": "Feature",
            "geometry": {
                "type": "Point",
                "coordinates": [
                    -15.821478884492876,
                    -8.249417250919635
                ]
            },
            "properties": {
                "name": "Water Gardens",
                "type": "town",
                "ruin": false
            }
        },
        {
            "type": "Feature",
            "geometry": {
                "type": "Point",
                "coordinates": [
                    -15.557417516407867,
                    -7.492727975958843
                ]
            },
            "properties": {
                "name": "Spottswood",
                "type": "fort_2",
                "ruin": false
            }
        },
        {
            "type": "Feature",
            "geometry": {
                "type": "Point",
                "coordinates": [
                    -16.29065935230051,
                    -7.464676360484518
                ]
            },
            "properties": {
                "name": "Ghost Hall",
                "type": "fort_2",
                "ruin": false
            }
        },
        {
            "type": "Feature",
            "geometry": {
                "type": "Point",
                "coordinates": [
                    -15.281719058705647,
                    -7.288297743516068
                ]
            },
            "properties": {
                "name": "The Broken Arm",
                "type": "region_2",
                "ruin": false
            }
        },
        {
            "type": "Feature",
            "geometry": {
                "type": "Point",
                "coordinates": [
                    -17.618245952671487,
                    -6.691279569591643
                ]
            },
            "properties": {
                "name": "Sea of Dorne",
                "type": "sea_2",
                "ruin": false
            }
        },
        {
            "type": "Feature",
            "geometry": {
                "type": "Point",
                "coordinates": [
                    -19.12188545832089,
                    -6.005249273745775
                ]
            },
            "properties": {
                "name": "Wyl",
                "type": "fort_2",
                "ruin": false
            }
        },
        {
            "type": "Feature",
            "geometry": {
                "type": "Point",
                "coordinates": [
                    -19.06457003289856,
                    -5.5391347022361686
                ]
            },
            "properties": {
                "name": "Blackhaven",
                "type": "fort_2",
                "ruin": false
            }
        },
        {
            "type": "Feature",
            "geometry": {
                "type": "Point",
                "coordinates": [
                    -18.731579165456083,
                    -4.869727592859462
                ]
            },
            "properties": {
                "name": "Summerhall",
                "type": "town",
                "ruin": true
            }
        },
        {
            "type": "Feature",
            "geometry": {
                "type": "Point",
                "coordinates": [
                    -18.284310268070584,
                    -5.4526493285714395
                ]
            },
            "properties": {
                "name": "The Red Watch",
                "type": "region_3",
                "ruin": false
            }
        },
        {
            "type": "Feature",
            "geometry": {
                "type": "Point",
                "coordinates": [
                    -18.049181592020204,
                    -5.595779139808329
                ]
            },
            "properties": {
                "name": "Stonehelm",
                "type": "fort_2",
                "ruin": false
            }
        },
        {
            "type": "Feature",
            "geometry": {
                "type": "Point",
                "coordinates": [
                    -17.96562346752907,
                    -5.094677384520125
                ]
            },
            "properties": {
                "name": "King's Mountain",
                "type": "fort_2",
                "ruin": false
            }
        },
        {
            "type": "Feature",
            "geometry": {
                "type": "Point",
                "coordinates": [
                    -17.639163818200956,
                    -5.319159676536543
                ]
            },
            "properties": {
                "name": "Crow's Nest",
                "type": "fort_2",
                "ruin": false
            }
        },
        {
            "type": "Feature",
            "geometry": {
                "type": "Point",
                "coordinates": [
                    -17.487593267316555,
                    -5.777542068635398
                ]
            },
            "properties": {
                "name": "Fawnton",
                "type": "small_city",
                "ruin": false
            }
        },
        {
            "type": "Feature",
            "geometry": {
                "type": "Point",
                "coordinates": [
                    -16.690876266368804,
                    -5.493270756307865
                ]
            },
            "properties": {
                "name": "The Rainwood",
                "type": "region_3",
                "ruin": false
            }
        },
        {
            "type": "Feature",
            "geometry": {
                "type": "Point",
                "coordinates": [
                    -16.66561450780179,
                    -5.7388739285350425
                ]
            },
            "properties": {
                "name": "Mistwood",
                "type": "fort_2",
                "ruin": false
            }
        },
        {
            "type": "Feature",
            "geometry": {
                "type": "Point",
                "coordinates": [
                    -16.706421963945218,
                    -6.177599052638698
                ]
            },
            "properties": {
                "name": "Weeping Town",
                "type": "town",
                "ruin": false
            }
        },
        {
            "type": "Feature",
            "geometry": {
                "type": "Point",
                "coordinates": [
                    -15.932534700187318,
                    -6.026014232284837
                ]
            },
            "properties": {
                "name": "Greenstone",
                "type": "fort_2",
                "ruin": false
            }
        },
        {
            "type": "Feature",
            "geometry": {
                "type": "Point",
                "coordinates": [
                    -15.841203726894634,
                    -5.879126446761148
                ]
            },
            "properties": {
                "name": "Estermont",
                "type": "region_3",
                "ruin": false
            }
        },
        {
            "type": "Feature",
            "geometry": {
                "type": "Point",
                "coordinates": [
                    -15.827711481626437,
                    -5.106404199490612
                ]
            },
            "properties": {
                "name": "Rain House",
                "type": "fort_2",
                "ruin": false
            }
        },
        {
            "type": "Feature",
            "geometry": {
                "type": "Point",
                "coordinates": [
                    -15.435182617526948,
                    -5.102533188165083
                ]
            },
            "properties": {
                "name": "Cape Wrath",
                "type": "region_3",
                "ruin": false
            }
        },
        {
            "type": "Feature",
            "geometry": {
                "type": "Point",
                "coordinates": [
                    -17.21516499215832,
                    -4.810205650217682
                ]
            },
            "properties": {
                "name": "Griffin's Roost",
                "type": "fort_2",
                "ruin": false
            }
        },
        {
            "type": "Feature",
            "geometry": {
                "type": "Point",
                "coordinates": [
                    -16.691929955763072,
                    -4.459614930656784
                ]
            },